{
"type": "FeatureCollection",
"name": "parishes_archgh",
"crs": { "type": "name", "properties": { "name": "urn:ogc:def:crs:OGC:1.3:CRS84" } },
"features": [
{ "type": "Feature", "properties": { "parish_id": 36695, "name": "All Saints Catholic Church", "city": "Houston" }, "geometry": { "type": "Point", "coordinates": [ -95.396135, 29.78917 ] } },
{ "type": "Feature", "properties": { "parish_id": 36612, "name": "Annunciation Catholic Church", "city": "Houston" }, "geometry": { "type": "Point", "coordinates": [ -95.3572817, 29.7563802 ] } },
{ "type": "Feature", "properties": { "parish_id": 36871, "name": "Ascension Chinese Mission", "city": "Houston" }, "geometry": { "type": "Point", "coordinates": [ -95.592095, 29.705136 ] } },
{ "type": "Feature", "properties": { "parish_id": 36740, "name": "Assumption Catholic Church", "city": "Houston" }, "geometry": { "type": "Point", "coordinates": [ -95.3865671, 29.8718909 ] } },
{ "type": "Feature", "properties": { "parish_id": 36694, "name": "Blessed Sacrament Church", "city": "Houston" }, "geometry": { "type": "Point", "coordinates": [ -95.3339435, 29.7484325 ] } },
{ "type": "Feature", "properties": { "parish_id": 36697, "name": "Catholic Charismatic Center", "city": "Houston" }, "geometry": { "type": "Point", "coordinates": [ -95.3401862, 29.7324393 ] } },
{ "type": "Feature", "properties": { "parish_id": 36760, "name": "Christ Our Light Catholic Church", "city": "Navasota" }, "geometry": { "type": "Point", "coordinates": [ -96.066446, 30.38494 ] } },
{ "type": "Feature", "properties": { "parish_id": 36761, "name": "Christ The Good Shepherd Church", "city": "Spring" }, "geometry": { "type": "Point", "coordinates": [ -95.4985414, 30.0380529 ] } },
{ "type": "Feature", "properties": { "parish_id": 36763, "name": "Christ the Incarnate Word Church", "city": "Houston" }, "geometry": { "type": "Point", "coordinates": [ -95.5851927, 29.6858848 ] } },
{ "type": "Feature", "properties": { "parish_id": 36696, "name": "Christ the King Church", "city": "Houston" }, "geometry": { "type": "Point", "coordinates": [ -95.3795573, 29.7952346 ] } },
{ "type": "Feature", "properties": { "parish_id": 36762, "name": "Christ the Redeemer Church", "city": "Houston" }, "geometry": { "type": "Point", "coordinates": [ -95.6299862, 29.9428108 ] } },
{ "type": "Feature", "properties": { "parish_id": 36610, "name": "Co-Cathedral of the Sacred Heart", "city": "Houston" }, "geometry": { "type": "Point", "coordinates": [ -95.3687268, 29.7498287 ] } },
{ "type": "Feature", "properties": { "parish_id": 36732, "name": "Corpus Christi Catholic Church", "city": "Houston" }, "geometry": { "type": "Point", "coordinates": [ -95.4422385, 29.6747375 ] } },
{ "type": "Feature", "properties": { "parish_id": 36764, "name": "Epiphany of the Lord Church", "city": "Katy" }, "geometry": { "type": "Point", "coordinates": [ -95.7316738, 29.7611877 ] } },
{ "type": "Feature", "properties": { "parish_id": 36765, "name": "Guardian Angel Church", "city": "Wallis" }, "geometry": { "type": "Point", "coordinates": [ -96.054936, 29.6260717 ] } },
{ "type": "Feature", "properties": { "parish_id": 36608, "name": "Holy Cross Chapel", "city": "Houston" }, "geometry": { "type": "Point", "coordinates": [ -95.3642947, 29.7572983 ] } },
{ "type": "Feature", "properties": { "parish_id": 36766, "name": "Holy Family Church", "city": "McNair (Baytown)" }, "geometry": { "type": "Point", "coordinates": [ -95.0121415, 29.8009852 ] } },
{ "type": "Feature", "properties": { "parish_id": 36767, "name": "Holy Family Church", "city": "Missouri City" }, "geometry": { "type": "Point", "coordinates": [ -95.5354146, 29.6181453 ] } },
{ "type": "Feature", "properties": { "parish_id": 36768, "name": "Holy Family Parish", "city": "Galveston" }, "geometry": { "type": "Point", "coordinates": [ -94.7944015, 29.3056043 ] } },
{ "type": "Feature", "properties": { "parish_id": 36737, "name": "Holy Ghost Church", "city": "Houston" }, "geometry": { "type": "Point", "coordinates": [ -95.4774125, 29.7033856 ] } },
{ "type": "Feature", "properties": { "parish_id": 36691, "name": "Holy Name Church", "city": "Houston" }, "geometry": { "type": "Point", "coordinates": [ -95.3562277, 29.7792312 ] } },
{ "type": "Feature", "properties": { "parish_id": 36692, "name": "Holy Rosary Church", "city": "Houston" }, "geometry": { "type": "Point", "coordinates": [ -95.3805357, 29.7393719 ] } },
{ "type": "Feature", "properties": { "parish_id": 36773, "name": "Holy Rosary Church", "city": "Rosenberg" }, "geometry": { "type": "Point", "coordinates": [ -95.8168515, 29.5533023 ] } },
{ "type": "Feature", "properties": { "parish_id": 36775, "name": "Immaculate Conception Church", "city": "Sealy" }, "geometry": { "type": "Point", "coordinates": [ -96.1606302, 29.7779225 ] } },
{ "type": "Feature", "properties": { "parish_id": 36774, "name": "Immaculate Conception Church", "city": "Industry" }, "geometry": { "type": "Point", "coordinates": [ -96.5122241, 29.972104 ] } },
{ "type": "Feature", "properties": { "parish_id": 36708, "name": "Immaculate Conception Church", "city": "Houston" }, "geometry": { "type": "Point", "coordinates": [ -95.2968968, 29.7331812 ] } },
{ "type": "Feature", "properties": { "parish_id": 36711, "name": "Immaculate Heart of Mary Church", "city": "Houston" }, "geometry": { "type": "Point", "coordinates": [ -95.2879756, 29.7391537 ] } },
{ "type": "Feature", "properties": { "parish_id": 37991, "name": "La Divina Providencia Chapel", "city": "Houston" }, "geometry": { "type": "Point", "coordinates": [ -95.2865615, 29.761391 ] } },
{ "type": "Feature", "properties": { "parish_id": 36776, "name": "Mary Queen Church", "city": "Friendswood" }, "geometry": { "type": "Point", "coordinates": [ -95.200273, 29.5235009 ] } },
{ "type": "Feature", "properties": { "parish_id": 36777, "name": "Most Holy Trinity Church", "city": "Angleton" }, "geometry": { "type": "Point", "coordinates": [ -95.4234232, 29.1781399 ] } },
{ "type": "Feature", "properties": { "parish_id": 36778, "name": "Notre Dame Church", "city": "Houston" }, "geometry": { "type": "Point", "coordinates": [ -95.578879, 29.6944308 ] } },
{ "type": "Feature", "properties": { "parish_id": 36729, "name": "Our Lady Star of the Sea Church", "city": "Houston" }, "geometry": { "type": "Point", "coordinates": [ -95.2558293, 29.7434229 ] } },
{ "type": "Feature", "properties": { "parish_id": 36750, "name": "Our Lady of Czestochowa Church", "city": "Houston" }, "geometry": { "type": "Point", "coordinates": [ -95.5253348, 29.8043297 ] } },
{ "type": "Feature", "properties": { "parish_id": 36743, "name": "Our Lady of Fatima Church", "city": "Galena Park" }, "geometry": { "type": "Point", "coordinates": [ -95.2385772, 29.7385197 ] } },
{ "type": "Feature", "properties": { "parish_id": 36753, "name": "Our Lady of Grace Church", "city": "South Houston" }, "geometry": { "type": "Point", "coordinates": [ -95.2485915, 29.6619176 ] } },
{ "type": "Feature", "properties": { "parish_id": 36779, "name": "Our Lady of Guadalupe Church", "city": "Rosenberg" }, "geometry": { "type": "Point", "coordinates": [ -95.8109725, 29.5627933 ] } },
{ "type": "Feature", "properties": { "parish_id": 36693, "name": "Our Lady of Guadalupe Church", "city": "Houston" }, "geometry": { "type": "Point", "coordinates": [ -95.3450608, 29.7591673 ] } },
{ "type": "Feature", "properties": { "parish_id": 36873, "name": "Our Lady of Guadalupe Church", "city": "Baytown" }, "geometry": { "type": "Point", "coordinates": [ -94.9992884, 29.7309943 ] } },
{ "type": "Feature", "properties": { "parish_id": 36780, "name": "Our Lady of Lavang Church", "city": "Houston" }, "geometry": { "type": "Point", "coordinates": [ -95.4690572, 29.911192 ] } },
{ "type": "Feature", "properties": { "parish_id": 36781, "name": "Our Lady of Lourdes Church", "city": "Hitchcock" }, "geometry": { "type": "Point", "coordinates": [ -95.0504286, 29.361331 ] } },
{ "type": "Feature", "properties": { "parish_id": 36758, "name": "Our Lady of Lourdes Church", "city": "Houston" }, "geometry": { "type": "Point", "coordinates": [ -95.5235118, 29.8617337 ] } },
{ "type": "Feature", "properties": { "parish_id": 36741, "name": "Our Lady of Mount Carmel Church", "city": "Houston" }, "geometry": { "type": "Point", "coordinates": [ -95.3085753, 29.6614864 ] } },
{ "type": "Feature", "properties": { "parish_id": 36782, "name": "Our Lady of Perpetual Help Church", "city": "Sweeny" }, "geometry": { "type": "Point", "coordinates": [ -95.6914183, 29.0487976 ] } },
{ "type": "Feature", "properties": { "parish_id": 36702, "name": "Our Lady of Sorrows Church", "city": "Houston" }, "geometry": { "type": "Point", "coordinates": [ -95.3236687, 29.7889395 ] } },
{ "type": "Feature", "properties": { "parish_id": 36714, "name": "Our Lady of St. John Church", "city": "Houston" }, "geometry": { "type": "Point", "coordinates": [ -95.3281172, 29.8282355 ] } },
{ "type": "Feature", "properties": { "parish_id": 36698, "name": "Our Mother of Mercy Church", "city": "Houston" }, "geometry": { "type": "Point", "coordinates": [ -95.3301525, 29.7801587 ] } },
{ "type": "Feature", "properties": { "parish_id": 36783, "name": "Prince of Peace Church", "city": "Houston" }, "geometry": { "type": "Point", "coordinates": [ -95.5619677, 29.9757621 ] } },
{ "type": "Feature", "properties": { "parish_id": 38669, "name": "Queen of Peace Catholic Church", "city": "La Marque" }, "geometry": { "type": "Point", "coordinates": [ -94.9666518, 29.3705941 ] } },
{ "type": "Feature", "properties": { "parish_id": 36707, "name": "Queen of Peace Church", "city": "Houston" }, "geometry": { "type": "Point", "coordinates": [ -95.3182206, 29.7148623 ] } },
{ "type": "Feature", "properties": { "parish_id": 36784, "name": "Regina Caeli Parish", "city": "Houston" }, "geometry": { "type": "Point", "coordinates": [ -95.5133841, 29.8979585 ] } },
{ "type": "Feature", "properties": { "parish_id": 36706, "name": "Resurrection Church", "city": "Houston" }, "geometry": { "type": "Point", "coordinates": [ -95.3029403, 29.7724535 ] } },
{ "type": "Feature", "properties": { "parish_id": 36788, "name": "Sacred Heart Church", "city": "Richmond" }, "geometry": { "type": "Point", "coordinates": [ -95.7603072, 29.5804119 ] } },
{ "type": "Feature", "properties": { "parish_id": 36787, "name": "Sacred Heart Church", "city": "Pattison" }, "geometry": { "type": "Point", "coordinates": [ -95.9946603, 29.8323245 ] } },
{ "type": "Feature", "properties": { "parish_id": 36786, "name": "Sacred Heart Church", "city": "Crosby" }, "geometry": { "type": "Point", "coordinates": [ -95.0580797, 29.9125535 ] } },
{ "type": "Feature", "properties": { "parish_id": 36785, "name": "Sacred Heart Church", "city": "Conroe" }, "geometry": { "type": "Point", "coordinates": [ -95.4610998, 30.3089119 ] } },
{ "type": "Feature", "properties": { "parish_id": 36789, "name": "Sacred Heart of Jesus Church", "city": "Manvel" }, "geometry": { "type": "Point", "coordinates": [ -95.4161663, 29.4902941 ] } },
{ "type": "Feature", "properties": { "parish_id": 36790, "name": "Shrine of the True Cross Church", "city": "Dickinson" }, "geometry": { "type": "Point", "coordinates": [ -95.0741736, 29.4495238 ] } },
{ "type": "Feature", "properties": { "parish_id": 36791, "name": "St. Albert of Trapani Church", "city": "Houston" }, "geometry": { "type": "Point", "coordinates": [ -95.526628, 29.659638 ] } },
{ "type": "Feature", "properties": { "parish_id": 36730, "name": "St. Alphonsus Church", "city": "Houston" }, "geometry": { "type": "Point", "coordinates": [ -95.2634853, 29.7178853 ] } },
{ "type": "Feature", "properties": { "parish_id": 36735, "name": "St. Ambrose Church", "city": "Houston" }, "geometry": { "type": "Point", "coordinates": [ -95.463566, 29.8292213 ] } },
{ "type": "Feature", "properties": { "parish_id": 36792, "name": "St. Andrew Church", "city": "Channelview" }, "geometry": { "type": "Point", "coordinates": [ -95.1253185, 29.7910826 ] } },
{ "type": "Feature", "properties": { "parish_id": 36744, "name": "St. Andrew Kim Church", "city": "Houston" }, "geometry": { "type": "Point", "coordinates": [ -95.5003912, 29.8006689 ] } },
{ "type": "Feature", "properties": { "parish_id": 36793, "name": "St. Angela Merici Church", "city": "Missouri City" }, "geometry": { "type": "Point", "coordinates": [ -95.5336696, 29.5147858 ] } },
{ "type": "Feature", "properties": { "parish_id": 36699, "name": "St. Anne Church", "city": "Houston" }, "geometry": { "type": "Point", "coordinates": [ -95.4124863, 29.7428595 ] } },
{ "type": "Feature", "properties": { "parish_id": 36794, "name": "St. Anne Church", "city": "Tomball" }, "geometry": { "type": "Point", "coordinates": [ -95.6101586, 30.0874772 ] } },
{ "type": "Feature", "properties": { "parish_id": 36704, "name": "St. Anne De Beaupre Church", "city": "Houston" }, "geometry": { "type": "Point", "coordinates": [ -95.3864702, 29.8130706 ] } },
{ "type": "Feature", "properties": { "parish_id": 36795, "name": "St. Anthony de Padua Church", "city": "Danbury" }, "geometry": { "type": "Point", "coordinates": [ -95.3479124, 29.2309479 ] } },
{ "type": "Feature", "properties": { "parish_id": 36796, "name": "St. Anthony of Padua Church", "city": "The Woodlands" }, "geometry": { "type": "Point", "coordinates": [ -95.5303826, 30.2048612 ] } },
{ "type": "Feature", "properties": { "parish_id": 36751, "name": "St. Augustine Church", "city": "Houston" }, "geometry": { "type": "Point", "coordinates": [ -95.2364351, 29.6788628 ] } },
{ "type": "Feature", "properties": { "parish_id": 36797, "name": "St. Bartholomew the Apostle Church", "city": "Katy" }, "geometry": { "type": "Point", "coordinates": [ -95.8148859, 29.7967031 ] } },
{ "type": "Feature", "properties": { "parish_id": 36757, "name": "St. Benedict the Abbot Church", "city": "Houston" }, "geometry": { "type": "Point", "coordinates": [ -95.437656, 29.6153772 ] } },
{ "type": "Feature", "properties": { "parish_id": 36798, "name": "St. Bernadette Church", "city": "Houston" }, "geometry": { "type": "Point", "coordinates": [ -95.1342894, 29.5675641 ] } },
{ "type": "Feature", "properties": { "parish_id": 36799, "name": "St. Catherine of Siena Church", "city": "Houston" }, "geometry": { "type": "Point", "coordinates": [ -95.5603701, 29.805508 ] } },
{ "type": "Feature", "properties": { "parish_id": 36748, "name": "St. Cecilia Church", "city": "Houston" }, "geometry": { "type": "Point", "coordinates": [ -95.5298029, 29.7788214 ] } },
{ "type": "Feature", "properties": { "parish_id": 36716, "name": "St. Charles Borromeo Church", "city": "Houston" }, "geometry": { "type": "Point", "coordinates": [ -95.3688473, 29.8473927 ] } },
{ "type": "Feature", "properties": { "parish_id": 36739, "name": "St. Christopher Church", "city": "Houston" }, "geometry": { "type": "Point", "coordinates": [ -95.2750965, 29.686401 ] } },
{ "type": "Feature", "properties": { "parish_id": 36800, "name": "St. Clare of Assisi Church", "city": "Houston" }, "geometry": { "type": "Point", "coordinates": [ -95.1191921, 29.5913925 ] } },
{ "type": "Feature", "properties": { "parish_id": 36759, "name": "St. Cyril of Alexandria Church", "city": "Houston" }, "geometry": { "type": "Point", "coordinates": [ -95.5609004, 29.7361807 ] } },
{ "type": "Feature", "properties": { "parish_id": 36801, "name": "St. Dominic Catholic Church", "city": "Houston" }, "geometry": { "type": "Point", "coordinates": [ -95.1730917, 29.8437009 ] } },
{ "type": "Feature", "properties": { "parish_id": 36802, "name": "St. Edith Stein Church", "city": "Katy" }, "geometry": { "type": "Point", "coordinates": [ -95.721389, 29.8200664 ] } },
{ "type": "Feature", "properties": { "parish_id": 36803, "name": "St. Edward Church", "city": "Spring" }, "geometry": { "type": "Point", "coordinates": [ -95.4564666, 30.0825641 ] } },
{ "type": "Feature", "properties": { "parish_id": 36804, "name": "St. Elizabeth Ann Seton Church", "city": "Houston" }, "geometry": { "type": "Point", "coordinates": [ -95.6304291, 29.8723977 ] } },
{ "type": "Feature", "properties": { "parish_id": 36805, "name": "St. Faustina Catholic Church", "city": "Fulshear" }, "geometry": { "type": "Point", "coordinates": [ -95.8638246, 29.6942252 ] } },
{ "type": "Feature", "properties": { "parish_id": 36806, "name": "St. Frances Cabrini Church", "city": "Houston" }, "geometry": { "type": "Point", "coordinates": [ -95.2213644, 29.6363615 ] } },
{ "type": "Feature", "properties": { "parish_id": 36731, "name": "St. Francis Xavier Church", "city": "Houston" }, "geometry": { "type": "Point", "coordinates": [ -95.3576613, 29.6579246 ] } },
{ "type": "Feature", "properties": { "parish_id": 36754, "name": "St. Francis de Sales Church", "city": "Houston" }, "geometry": { "type": "Point", "coordinates": [ -95.5295778, 29.7005457 ] } },
{ "type": "Feature", "properties": { "parish_id": 36709, "name": "St. Francis of Assisi Church", "city": "Houston" }, "geometry": { "type": "Point", "coordinates": [ -95.3099651, 29.8075385 ] } },
{ "type": "Feature", "properties": { "parish_id": 36742, "name": "St. Gregory the Great Church", "city": "Houston" }, "geometry": { "type": "Point", "coordinates": [ -95.3135446, 29.8660898 ] } },
{ "type": "Feature", "properties": { "parish_id": 36807, "name": "St. Helen Catholic Church", "city": "Pearland" }, "geometry": { "type": "Point", "coordinates": [ -95.2759536, 29.5667683 ] } },
{ "type": "Feature", "properties": { "parish_id": 36808, "name": "St. Hyacinth Church", "city": "Deer Park" }, "geometry": { "type": "Point", "coordinates": [ -95.1222865, 29.6849345 ] } },
{ "type": "Feature", "properties": { "parish_id": 36809, "name": "St. Ignatius of Loyola", "city": "Spring" }, "geometry": { "type": "Point", "coordinates": [ -95.525691600000016, 30.0076387 ] } },
{ "type": "Feature", "properties": { "parish_id": 36810, "name": "St. James the Apostle Church", "city": "Spring" }, "geometry": { "type": "Point", "coordinates": [ -95.3834702, 30.045094 ] } },
{ "type": "Feature", "properties": { "parish_id": 36811, "name": "St. Jerome Catholic Church", "city": "Clute" }, "geometry": { "type": "Point", "coordinates": [ -95.4117308, 29.0221662 ] } },
{ "type": "Feature", "properties": { "parish_id": 36747, "name": "St. Jerome Church", "city": "Houston" }, "geometry": { "type": "Point", "coordinates": [ -95.5119926, 29.8204684 ] } },
{ "type": "Feature", "properties": { "parish_id": 36812, "name": "St. John Fisher Church", "city": "Richmond" }, "geometry": { "type": "Point", "coordinates": [ -95.7651306, 29.5906384 ] } },
{ "type": "Feature", "properties": { "parish_id": 36814, "name": "St. John Neumann Church", "city": "Houston" }, "geometry": { "type": "Point", "coordinates": [ -95.4604383, 29.9310121 ] } },
{ "type": "Feature", "properties": { "parish_id": 36818, "name": "St. John Vianney Church", "city": "Houston" }, "geometry": { "type": "Point", "coordinates": [ -95.6146274, 29.7699314 ] } },
{ "type": "Feature", "properties": { "parish_id": 36813, "name": "St. John of the Cross Church", "city": "New Caney" }, "geometry": { "type": "Point", "coordinates": [ -95.211732, 30.157096 ] } },
{ "type": "Feature", "properties": { "parish_id": 36815, "name": "St. John the Apostle Mission", "city": "West Columbia" }, "geometry": { "type": "Point", "coordinates": [ -95.6460046, 29.1332077 ] } },
{ "type": "Feature", "properties": { "parish_id": 36816, "name": "St. John the Baptist Church", "city": "Alvin" }, "geometry": { "type": "Point", "coordinates": [ -95.2429234, 29.4087894 ] } },
{ "type": "Feature", "properties": { "parish_id": 36817, "name": "St. John the Evangelist Church", "city": "Baytown" }, "geometry": { "type": "Point", "coordinates": [ -94.9728483, 29.7713527 ] } },
{ "type": "Feature", "properties": { "parish_id": 36819, "name": "St. Joseph Church", "city": "Baytown" }, "geometry": { "type": "Point", "coordinates": [ -95.001617, 29.724158 ] } },
{ "type": "Feature", "properties": { "parish_id": 36820, "name": "St. Joseph Church", "city": "New Waverly" }, "geometry": { "type": "Point", "coordinates": [ -95.4822887, 30.5357149 ] } },
{ "type": "Feature", "properties": { "parish_id": 36609, "name": "St. Joseph Church", "city": "Houston" }, "geometry": { "type": "Point", "coordinates": [ -95.3731211, 29.7658451 ] } },
{ "type": "Feature", "properties": { "parish_id": 36821, "name": "St. Joseph Mission", "city": "Stoneham" }, "geometry": { "type": "Point", "coordinates": [ -95.9090786, 30.3347463 ] } },
{ "type": "Feature", "properties": { "parish_id": 36822, "name": "St. Joseph on the Brazos Church", "city": "Brazoria" }, "geometry": { "type": "Point", "coordinates": [ -95.5603827, 29.0428025 ] } },
{ "type": "Feature", "properties": { "parish_id": 36823, "name": "St. Juan Diego Church", "city": "Pasadena" }, "geometry": { "type": "Point", "coordinates": [ -95.1637032, 29.681935 ] } },
{ "type": "Feature", "properties": { "parish_id": 36824, "name": "St. Jude Thaddeus Church", "city": "Highlands" }, "geometry": { "type": "Point", "coordinates": [ -95.0578579, 29.806849 ] } },
{ "type": "Feature", "properties": { "parish_id": 36825, "name": "St. Justin Martyr Church", "city": "Houston" }, "geometry": { "type": "Point", "coordinates": [ -95.6181724, 29.7152885 ] } },
{ "type": "Feature", "properties": { "parish_id": 36826, "name": "St. Katharine Drexel Church", "city": "Hempstead" }, "geometry": { "type": "Point", "coordinates": [ -96.0591719, 30.1023893 ] } },
{ "type": "Feature", "properties": { "parish_id": 36827, "name": "St. Laurence Church", "city": "Sugar Land" }, "geometry": { "type": "Point", "coordinates": [ -95.6124344, 29.5803226 ] } },
{ "type": "Feature", "properties": { "parish_id": 36755, "name": "St. Leo the Great Church", "city": "Houston" }, "geometry": { "type": "Point", "coordinates": [ -95.3541006, 29.9138156 ] } },
{ "type": "Feature", "properties": { "parish_id": 36828, "name": "St. Luke the Evangelist Church", "city": "Houston" }, "geometry": { "type": "Point", "coordinates": [ -95.2334376, 29.5924405 ] } },
{ "type": "Feature", "properties": { "parish_id": 36829, "name": "St. Mark the Evangelist Church", "city": "Houston" }, "geometry": { "type": "Point", "coordinates": [ -95.464701, 29.5951609 ] } },
{ "type": "Feature", "properties": { "parish_id": 36830, "name": "St. Martha Church", "city": "Porter" }, "geometry": { "type": "Point", "coordinates": [ -95.2236772, 30.0722694 ] } },
{ "type": "Feature", "properties": { "parish_id": 36831, "name": "St. Martin de Porres Church", "city": "Barrett Station" }, "geometry": { "type": "Point", "coordinates": [ -95.0630529, 29.8744399 ] } },
{ "type": "Feature", "properties": { "parish_id": 36834, "name": "St. Mary Church", "city": "Plantersville" }, "geometry": { "type": "Point", "coordinates": [ -95.8638792, 30.3490641 ] } },
{ "type": "Feature", "properties": { "parish_id": 36832, "name": "St. Mary Church", "city": "La Porte" }, "geometry": { "type": "Point", "coordinates": [ -95.0104264, 29.6560297 ] } },
{ "type": "Feature", "properties": { "parish_id": 36836, "name": "St. Mary Magdalene Church", "city": "Humble" }, "geometry": { "type": "Point", "coordinates": [ -95.257737, 29.9915103 ] } },
{ "type": "Feature", "properties": { "parish_id": 36835, "name": "St. Mary of the Expectation Church", "city": "League City" }, "geometry": { "type": "Point", "coordinates": [ -95.0783052, 29.5146004 ] } },
{ "type": "Feature", "properties": { "parish_id": 36837, "name": "St. Mary of the Miraculous Medal Church", "city": "Texas City" }, "geometry": { "type": "Point", "coordinates": [ -94.9181544, 29.3939714 ] } },
{ "type": "Feature", "properties": { "parish_id": 36700, "name": "St. Mary of the Purification Church", "city": "Houston" }, "geometry": { "type": "Point", "coordinates": [ -95.3687809, 29.719233 ] } },
{ "type": "Feature", "properties": { "parish_id": 36833, "name": "St. Mary's Catholic Church", "city": "Frydek" }, "geometry": { "type": "Point", "coordinates": [ -96.0866715, 29.7539452 ] } },
{ "type": "Feature", "properties": { "parish_id": 36838, "name": "St. Mary, Star of the Sea Church", "city": "Freeport" }, "geometry": { "type": "Point", "coordinates": [ -95.3610672, 28.9495545 ] } },
{ "type": "Feature", "properties": { "parish_id": 36839, "name": "St. Matthew the Evangelist Church", "city": "Houston" }, "geometry": { "type": "Point", "coordinates": [ -95.5084889, 29.8854753 ] } },
{ "type": "Feature", "properties": { "parish_id": 36840, "name": "St. Matthias the Apostle Church", "city": "Magnolia" }, "geometry": { "type": "Point", "coordinates": [ -95.744424, 30.205121 ] } },
{ "type": "Feature", "properties": { "parish_id": 36841, "name": "St. Maximilian Kolbe Church", "city": "Houston" }, "geometry": { "type": "Point", "coordinates": [ -95.5694808, 29.9090057 ] } },
{ "type": "Feature", "properties": { "parish_id": 36843, "name": "St. Michael the Archangel Church", "city": "Needville" }, "geometry": { "type": "Point", "coordinates": [ -95.8362045, 29.3974279 ] } },
{ "type": "Feature", "properties": { "parish_id": 36715, "name": "St. Michael the Archangel Church", "city": "Houston" }, "geometry": { "type": "Point", "coordinates": [ -95.4665996, 29.748108 ] } },
{ "type": "Feature", "properties": { "parish_id": 36842, "name": "St. Michael the Archangel Church", "city": "Lake Jackson" }, "geometry": { "type": "Point", "coordinates": [ -95.4499745, 29.0352709 ] } },
{ "type": "Feature", "properties": { "parish_id": 36745, "name": "St. Monica Church", "city": "Houston" }, "geometry": { "type": "Point", "coordinates": [ -95.4367944, 29.8703515 ] } },
{ "type": "Feature", "properties": { "parish_id": 36690, "name": "St. Nicholas Church", "city": "Houston" }, "geometry": { "type": "Point", "coordinates": [ -95.3541732, 29.7457708 ] } },
{ "type": "Feature", "properties": { "parish_id": 36701, "name": "St. Patrick Church", "city": "Houston" }, "geometry": { "type": "Point", "coordinates": [ -95.3559296, 29.8048192 ] } },
{ "type": "Feature", "properties": { "parish_id": 36844, "name": "St. Paul the Apostle Church", "city": "Nassau Bay" }, "geometry": { "type": "Point", "coordinates": [ -95.0930524, 29.5452936 ] } },
{ "type": "Feature", "properties": { "parish_id": 36727, "name": "St. Peter Claver Church", "city": "Houston" }, "geometry": { "type": "Point", "coordinates": [ -95.2860495, 29.8171838 ] } },
{ "type": "Feature", "properties": { "parish_id": 36705, "name": "St. Peter the Apostle Church", "city": "Houston" }, "geometry": { "type": "Point", "coordinates": [ -95.3617749, 29.7038665 ] } },
{ "type": "Feature", "properties": { "parish_id": 36746, "name": "St. Philip Neri Church", "city": "Houston" }, "geometry": { "type": "Point", "coordinates": [ -95.3207069, 29.6245936 ] } },
{ "type": "Feature", "properties": { "parish_id": 36734, "name": "St. Philip of Jesus Church", "city": "Houston" }, "geometry": { "type": "Point", "coordinates": [ -95.2562584, 29.7954243 ] } },
{ "type": "Feature", "properties": { "parish_id": 36845, "name": "St. Philip the Apostle Church", "city": "Huffman" }, "geometry": { "type": "Point", "coordinates": [ -95.0840972, 30.0272724 ] } },
{ "type": "Feature", "properties": { "parish_id": 36756, "name": "St. Pius V Church", "city": "Pasadena" }, "geometry": { "type": "Point", "coordinates": [ -95.2401019, 29.7268653 ] } },
{ "type": "Feature", "properties": { "parish_id": 36752, "name": "St. Raphael the Archangel Church", "city": "Houston" }, "geometry": { "type": "Point", "coordinates": [ -95.528748, 29.722104 ] } },
{ "type": "Feature", "properties": { "parish_id": 36712, "name": "St. Rose of Lima Church", "city": "Houston" }, "geometry": { "type": "Point", "coordinates": [ -95.4153504, 29.8211123 ] } },
{ "type": "Feature", "properties": { "parish_id": 36846, "name": "St. Stanislaus Kostka Church", "city": "Anderson" }, "geometry": { "type": "Point", "coordinates": [ -95.9934209, 30.4830021 ] } },
{ "type": "Feature", "properties": { "parish_id": 36611, "name": "St. Stephen Catholic Church", "city": "Houston" }, "geometry": { "type": "Point", "coordinates": [ -95.377837, 29.7687596 ] } },
{ "type": "Feature", "properties": { "parish_id": 36853, "name": "St. Stephen the Martyr Mission", "city": "Point Blank" }, "geometry": { "type": "Point", "coordinates": [ -95.2004506, 30.7183246 ] } },
{ "type": "Feature", "properties": { "parish_id": 36854, "name": "St. Theresa Church", "city": "Sugar Land" }, "geometry": { "type": "Point", "coordinates": [ -95.6320433, 29.6286379 ] } },
{ "type": "Feature", "properties": { "parish_id": 36703, "name": "St. Theresa Church", "city": "Houston" }, "geometry": { "type": "Point", "coordinates": [ -95.4302867, 29.7728443 ] } },
{ "type": "Feature", "properties": { "parish_id": 36855, "name": "St. Thomas Aquinas Catholic Church", "city": "Sugar Land" }, "geometry": { "type": "Point", "coordinates": [ -95.6034471, 29.6579902 ] } },
{ "type": "Feature", "properties": { "parish_id": 36749, "name": "St. Thomas More Church", "city": "Houston" }, "geometry": { "type": "Point", "coordinates": [ -95.4932724, 29.6682465 ] } },
{ "type": "Feature", "properties": { "parish_id": 36856, "name": "St. Thomas the Apostle Church", "city": "Huntsville" }, "geometry": { "type": "Point", "coordinates": [ -95.553532, 30.7173817 ] } },
{ "type": "Feature", "properties": { "parish_id": 36713, "name": "St. Vincent de Paul Church", "city": "Houston" }, "geometry": { "type": "Point", "coordinates": [ -95.4279284, 29.705556 ] } },
{ "type": "Feature", "properties": { "parish_id": 36857, "name": "St. Wenceslaus Catholic Church", "city": "Beasley" }, "geometry": { "type": "Point", "coordinates": [ -95.9148522, 29.4956109 ] } },
{ "type": "Feature", "properties": { "parish_id": 36858, "name": "Sts. Cyril & Methodius Church", "city": "Needville" }, "geometry": { "type": "Point", "coordinates": [ -95.8362045, 29.3974279 ] } },
{ "type": "Feature", "properties": { "parish_id": 36860, "name": "Sts. Peter & Paul Church", "city": "Bellville" }, "geometry": { "type": "Point", "coordinates": [ -96.2520369, 29.9372917 ] } },
{ "type": "Feature", "properties": { "parish_id": 36861, "name": "Sts. Simon & Jude Church", "city": "The Woodlands" }, "geometry": { "type": "Point", "coordinates": [ -95.4911696, 30.1489265 ] } },
{ "type": "Feature", "properties": { "parish_id": 36862, "name": "Vietnamese Martyrs Church", "city": "Houston" }, "geometry": { "type": "Point", "coordinates": [ -95.2300545, 29.6169095 ] } }
]
}
